[{"id":"0401","name":"Aleksandrowski","voiv_id":"04","voiv_name":"Kujawsko-pomorskie","lat":52.80969,"lon":18.68424},{"id":"2001","name":"Augustowski","voiv_id":"20","voiv_name":"Podlaskie","lat":53.75336,"lon":23.14719},{"id":"2801","name":"Bartoszycki","voiv_id":"28","voiv_name":"Warmińsko-mazurskie","lat":54.21707,"lon":20.77506},{"id":"1001","name":"Bełchatowski","voiv_id":"10","voiv_name":"Łódzkie","lat":51.35937,"lon":19.22515},{"id":"2401","name":"Będziński","voiv_id":"24","voiv_name":"Śląskie","lat":50.28744,"lon":19.35291},{"id":"0601","name":"Bialski","voiv_id":"06","voiv_name":"Lubelskie","lat":51.99072,"lon":23.2345},{"id":"0661","name":"Biała Podlaska","voiv_id":"06","voiv_name":"Lubelskie","lat":52.02383,"lon":23.1503},{"id":"1401","name":"Białobrzeski","voiv_id":"14","voiv_name":"Mazowieckie","lat":51.63402,"lon":20.96251},{"id":"3201","name":"Białogardzki","voiv_id":"32","voiv_name":"Zachodniopomorskie","lat":53.96245,"lon":16.08317},{"id":"2002","name":"Białostocki","voiv_id":"20","voiv_name":"Podlaskie","lat":53.08496,"lon":23.30406},{"id":"2061","name":"Białystok","voiv_id":"20","voiv_name":"Podlaskie","lat":53.13338,"lon":23.13873},{"id":"2003","name":"Bielski","voiv_id":"20","voiv_name":"Podlaskie","lat":52.75107,"lon":23.01618},{"id":"2402","name":"Bielski","voiv_id":"24","voiv_name":"Śląskie","lat":49.7614,"lon":18.91044},{"id":"2461","name":"Bielsko-Biała","voiv_id":"24","voiv_name":"Śląskie","lat":49.82108,"lon":19.04892},{"id":"2414","name":"Bieruńsko-lędziński","voiv_id":"24","voiv_name":"Śląskie","lat":50.08973,"lon":19.11705},{"id":"1801","name":"Bieszczadzki","voiv_id":"18","voiv_name":"Podkarpackie","lat":49.29055,"lon":22.63751},{"id":"0602","name":"Biłgorajski","voiv_id":"06","voiv_name":"Lubelskie","lat":50.55489,"lon":22.75067},{"id":"1201","name":"Bocheński","voiv_id":"12","voiv_name":"Małopolskie","lat":49.93889,"lon":20.42463},{"id":"0201","name":"Bolesławiecki","voiv_id":"02","voiv_name":"Dolnośląskie","lat":51.32206,"lon":15.52629},{"id":"2802","name":"Braniewski","voiv_id":"28","voiv_name":"Warmińsko-mazurskie","lat":54.20177,"lon":19.97553},{"id":"0402","name":"Brodnicki","voiv_id":"04","voiv_name":"Kujawsko-pomorskie","lat":53.29518,"lon":19.39356},{"id":"1202","name":"Brzeski","voiv_id":"12","voiv_name":"Małopolskie","lat":49.96429,"lon":20.66108},{"id":"1601","name":"Brzeski","voiv_id":"16","voiv_name":"Opolskie","lat":50.76887,"lon":17.48426},{"id":"1021","name":"Brzeziński","voiv_id":"10","voiv_name":"Łódzkie","lat":51.83343,"lon":19.80806},{"id":"1802","name":"Brzozowski","voiv_id":"18","voiv_name":"Podkarpackie","lat":49.72856,"lon":22.08085},{"id":"2601","name":"Buski","voiv_id":"26","voiv_name":"Świętokrzyskie","lat":50.45938,"lon":20.87295},{"id":"0403","name":"Bydgoski","voiv_id":"04","voiv_name":"Kujawsko-pomorskie","lat":53.19598,"lon":18.01153},{"id":"0461","name":"Bydgoszcz","voiv_id":"04","voiv_name":"Kujawsko-pomorskie","lat":53.14953,"lon":18.02479},{"id":"2462","name":"Bytom","voiv_id":"24","voiv_name":"Śląskie","lat":50.37026,"lon":18.86277},{"id":"2201","name":"Bytowski","voiv_id":"22","voiv_name":"Pomorskie","lat":54.14655,"lon":17.3105},{"id":"0662","name":"Chełm","voiv_id":"06","voiv_name":"Lubelskie","lat":51.14,"lon":23.4903},{"id":"0404","name":"Chełmiński","voiv_id":"04","voiv_name":"Kujawsko-pomorskie","lat":53.30765,"lon":18.52618},{"id":"0603","name":"Chełmski","voiv_id":"06","voiv_name":"Lubelskie","lat":51.11853,"lon":23.56291},{"id":"3001","name":"Chodzieski","voiv_id":"30","voiv_name":"Wielkopolskie","lat":52.97398,"lon":17.03109},{"id":"2202","name":"Chojnicki","voiv_id":"22","voiv_name":"Pomorskie","lat":53.82448,"lon":17.71428},{"id":"2463","name":"Chorzów","voiv_id":"24","voiv_name":"Śląskie","lat":50.28728,"lon":18.96032},{"id":"3202","name":"Choszczeński","voiv_id":"32","voiv_name":"Zachodniopomorskie","lat":53.16707,"lon":15.58159},{"id":"1203","name":"Chrzanowski","voiv_id":"12","voiv_name":"Małopolskie","lat":50.10542,"lon":19.45597},{"id":"1402","name":"Ciechanowski","voiv_id":"14","voiv_name":"Mazowieckie","lat":52.86681,"lon":20.56936},{"id":"2403","name":"Cieszyński","voiv_id":"24","voiv_name":"Śląskie","lat":49.76433,"lon":18.80503},{"id":"3002","name":"Czarnkowsko-trzcianecki","voiv_id":"30","voiv_name":"Wielkopolskie","lat":52.92694,"lon":16.36024},{"id":"2464","name":"Częstochowa","voiv_id":"24","voiv_name":"Śląskie","lat":50.80166,"lon":19.13002},{"id":"2404","name":"Częstochowski","voiv_id":"24","voiv_name":"Śląskie","lat":50.80797,"lon":19.38016},{"id":"2203","name":"Człuchowski","voiv_id":"22","voiv_name":"Pomorskie","lat":53.71829,"lon":17.15171},{"id":"2465","name":"Dąbrowa Górnicza","voiv_id":"24","voiv_name":"Śląskie","lat":50.34952,"lon":19.29945},{"id":"1204","name":"Dąbrowski","voiv_id":"12","voiv_name":"Małopolskie","lat":50.22226,"lon":20.98744},{"id":"1803","name":"Dębicki","voiv_id":"18","voiv_name":"Podkarpackie","lat":50.00044,"lon":21.36062},{"id":"3203","name":"Drawski","voiv_id":"32","voiv_name":"Zachodniopomorskie","lat":53.48149,"lon":15.98815},{"id":"2803","name":"Działdowski","voiv_id":"28","voiv_name":"Warmińsko-mazurskie","lat":53.26703,"lon":20.03131},{"id":"0202","name":"Dzierżoniowski","voiv_id":"02","voiv_name":"Dolnośląskie","lat":50.73032,"lon":16.71259},{"id":"2861","name":"Elbląg","voiv_id":"28","voiv_name":"Warmińsko-mazurskie","lat":54.21072,"lon":19.45685},{"id":"2804","name":"Elbląski","voiv_id":"28","voiv_name":"Warmińsko-mazurskie","lat":54.08404,"lon":19.73602},{"id":"2805","name":"Ełcki","voiv_id":"28","voiv_name":"Warmińsko-mazurskie","lat":53.83662,"lon":22.32895},{"id":"1403","name":"Garwoliński","voiv_id":"14","voiv_name":"Mazowieckie","lat":51.84809,"lon":21.68456},{"id":"2261","name":"Gdańsk","voiv_id":"22","voiv_name":"Pomorskie","lat":54.35681,"lon":18.59327},{"id":"2204","name":"Gdański","voiv_id":"22","voiv_name":"Pomorskie","lat":54.22218,"lon":18.52272},{"id":"2262","name":"Gdynia","voiv_id":"22","voiv_name":"Pomorskie","lat":54.56443,"lon":18.51118},{"id":"2806","name":"Giżycki","voiv_id":"28","voiv_name":"Warmińsko-mazurskie","lat":53.98826,"lon":21.85803},{"id":"2466","name":"Gliwice","voiv_id":"24","voiv_name":"Śląskie","lat":50.3068,"lon":18.64302},{"id":"2405","name":"Gliwicki","voiv_id":"24","voiv_name":"Śląskie","lat":50.19665,"lon":18.72087},{"id":"0203","name":"Głogowski","voiv_id":"02","voiv_name":"Dolnośląskie","lat":51.66418,"lon":16.06454},{"id":"1602","name":"Głubczycki","voiv_id":"16","voiv_name":"Opolskie","lat":50.14768,"lon":17.82127},{"id":"3003","name":"Gnieźnieński","voiv_id":"30","voiv_name":"Wielkopolskie","lat":52.57333,"lon":17.62015},{"id":"3204","name":"Goleniowski","voiv_id":"32","voiv_name":"Zachodniopomorskie","lat":53.61623,"lon":14.94734},{"id":"0405","name":"Golubsko-dobrzyński","voiv_id":"04","voiv_name":"Kujawsko-pomorskie","lat":53.11016,"lon":19.04956},{"id":"2818","name":"Gołdapski","voiv_id":"28","voiv_name":"Warmińsko-mazurskie","lat":54.25243,"lon":22.35156},{"id":"1205","name":"Gorlicki","voiv_id":"12","voiv_name":"Małopolskie","lat":49.59688,"lon":21.16448},{"id":"0801","name":"Gorzowski","voiv_id":"08","voiv_name":"Lubuskie","lat":52.75964,"lon":15.08424},{"id":"0861","name":"Gorzów Wielkopolski","voiv_id":"08","voiv_name":"Lubuskie","lat":52.73112,"lon":15.21152},{"id":"1404","name":"Gostyniński","voiv_id":"14","voiv_name":"Mazowieckie","lat":52.38128,"lon":19.61563},{"id":"3004","name":"Gostyński","voiv_id":"30","voiv_name":"Wielkopolskie","lat":51.83015,"lon":17.05781},{"id":"0204","name":"Górowski","voiv_id":"02","voiv_name":"Dolnośląskie","lat":51.6215,"lon":16.5576},{"id":"2004","name":"Grajewski","voiv_id":"20","voiv_name":"Podlaskie","lat":53.55236,"lon":22.55295},{"id":"1405","name":"Grodziski","voiv_id":"14","voiv_name":"Mazowieckie","lat":52.06768,"lon":20.61295},{"id":"3005","name":"Grodziski","voiv_id":"30","voiv_name":"Wielkopolskie","lat":52.19713,"lon":16.30014},{"id":"1406","name":"Grójecki","voiv_id":"14","voiv_name":"Mazowieckie","lat":51.7564,"lon":20.8138},{"id":"0462","name":"Grudziądz","voiv_id":"04","voiv_name":"Kujawsko-pomorskie","lat":53.47218,"lon":18.78315},{"id":"0406","name":"Grudziądzki","voiv_id":"04","voiv_name":"Kujawsko-pomorskie","lat":53.46061,"lon":18.92769},{"id":"3205","name":"Gryficki","voiv_id":"32","voiv_name":"Zachodniopomorskie","lat":53.90703,"lon":15.25879},{"id":"3206","name":"Gryfiński","voiv_id":"32","voiv_name":"Zachodniopomorskie","lat":53.0851,"lon":14.57829},{"id":"2005","name":"Hajnowski","voiv_id":"20","voiv_name":"Podlaskie","lat":52.7942,"lon":23.55083},{"id":"0604","name":"Hrubieszowski","voiv_id":"06","voiv_name":"Lubelskie","lat":50.74671,"lon":23.90697},{"id":"2807","name":"Iławski","voiv_id":"28","voiv_name":"Warmińsko-mazurskie","lat":53.65062,"lon":19.60237},{"id":"0407","name":"Inowrocławski","voiv_id":"04","voiv_name":"Kujawsko-pomorskie","lat":52.78607,"lon":18.26406},{"id":"0605","name":"Janowski","voiv_id":"06","voiv_name":"Lubelskie","lat":50.7397,"lon":22.40916},{"id":"3006","name":"Jarociński","voiv_id":"30","voiv_name":"Wielkopolskie","lat":52.02059,"lon":17.53623},{"id":"1804","name":"Jarosławski","voiv_id":"18","voiv_name":"Podkarpackie","lat":49.99703,"lon":22.78316},{"id":"1805","name":"Jasielski","voiv_id":"18","voiv_name":"Podkarpackie","lat":49.65421,"lon":21.47243},{"id":"2467","name":"Jastrzębie-Zdrój","voiv_id":"24","voiv_name":"Śląskie","lat":49.96103,"lon":18.60725},{"id":"0205","name":"Jaworski","voiv_id":"02","voiv_name":"Dolnośląskie","lat":51.00051,"lon":16.14205},{"id":"2468","name":"Jaworzno","voiv_id":"24","voiv_name":"Śląskie","lat":50.20537,"lon":19.29598},{"id":"0261","name":"Jelenia Góra","voiv_id":"02","voiv_name":"Dolnośląskie","lat":50.86532,"lon":15.70531},{"id":"2602","name":"Jędrzejowski","voiv_id":"26","voiv_name":"Świętokrzyskie","lat":50.6408,"lon":20.24115},{"id":"3007","name":"Kaliski","voiv_id":"30","voiv_name":"Wielkopolskie","lat":51.76968,"lon":18.18466},{"id":"3061","name":"Kalisz","voiv_id":"30","voiv_name":"Wielkopolskie","lat":51.74204,"lon":18.08124},{"id":"0207","name":"Kamiennogórski","voiv_id":"02","voiv_name":"Dolnośląskie","lat":50.77639,"lon":16.01163},{"id":"3207","name":"Kamieński","voiv_id":"32","voiv_name":"Zachodniopomorskie","lat":53.87723,"lon":14.89946},{"id":"0206","name":"Karkonoski","voiv_id":"02","voiv_name":"Dolnośląskie","lat":50.87939,"lon":15.69668},{"id":"2205","name":"Kartuski","voiv_id":"22","voiv_name":"Pomorskie","lat":54.30767,"lon":18.05239},{"id":"2469","name":"Katowice","voiv_id":"24","voiv_name":"Śląskie","lat":50.2051,"lon":19.01296},{"id":"2603","name":"Kazimierski","voiv_id":"26","voiv_name":"Świętokrzyskie","lat":50.27217,"lon":20.51746},{"id":"1603","name":"Kędzierzyńsko-kozielski","voiv_id":"16","voiv_name":"Opolskie","lat":50.30774,"lon":18.14316},{"id":"3008","name":"Kępiński","voiv_id":"30","voiv_name":"Wielkopolskie","lat":51.2485,"lon":17.99813},{"id":"2808","name":"Kętrzyński","voiv_id":"28","voiv_name":"Warmińsko-mazurskie","lat":54.13817,"lon":21.31},{"id":"2661","name":"Kielce","voiv_id":"26","voiv_name":"Świętokrzyskie","lat":50.85861,"lon":20.61984},{"id":"2604","name":"Kielecki","voiv_id":"26","voiv_name":"Świętokrzyskie","lat":50.80951,"lon":20.71514},{"id":"1604","name":"Kluczborski","voiv_id":"16","voiv_name":"Opolskie","lat":51.0057,"lon":18.18879},{"id":"2406","name":"Kłobucki","voiv_id":"24","voiv_name":"Śląskie","lat":50.91711,"lon":18.84128},{"id":"0208","name":"Kłodzki","voiv_id":"02","voiv_name":"Dolnośląskie","lat":50.3802,"lon":16.58584},{"id":"1806","name":"Kolbuszowski","voiv_id":"18","voiv_name":"Podkarpackie","lat":50.27982,"lon":21.82375},{"id":"2006","name":"Kolneński","voiv_id":"20","voiv_name":"Podlaskie","lat":53.38763,"lon":21.92623},{"id":"3009","name":"Kolski","voiv_id":"30","voiv_name":"Wielkopolskie","lat":52.24935,"lon":18.78128},{"id":"3208","name":"Kołobrzeski","voiv_id":"32","voiv_name":"Zachodniopomorskie","lat":54.02627,"lon":15.58164},{"id":"2605","name":"Konecki","voiv_id":"26","voiv_name":"Świętokrzyskie","lat":51.1539,"lon":20.33872},{"id":"3062","name":"Konin","voiv_id":"30","voiv_name":"Wielkopolskie","lat":52.24952,"lon":18.25902},{"id":"3010","name":"Koniński","voiv_id":"30","voiv_name":"Wielkopolskie","lat":52.2939,"lon":18.28176},{"id":"3261","name":"Koszalin","voiv_id":"32","voiv_name":"Zachodniopomorskie","lat":54.19924,"lon":16.20116},{"id":"3209","name":"Koszaliński","voiv_id":"32","voiv_name":"Zachodniopomorskie","lat":54.09656,"lon":16.43315},{"id":"3011","name":"Kościański","voiv_id":"30","voiv_name":"Wielkopolskie","lat":52.0335,"lon":16.72072},{"id":"2206","name":"Kościerski","voiv_id":"22","voiv_name":"Pomorskie","lat":54.03142,"lon":18.0064},{"id":"1407","name":"Kozienicki","voiv_id":"14","voiv_name":"Mazowieckie","lat":51.59923,"lon":21.44818},{"id":"1206","name":"Krakowski","voiv_id":"12","voiv_name":"Małopolskie","lat":50.09401,"lon":19.85846},{"id":"1261","name":"Kraków","voiv_id":"12","voiv_name":"Małopolskie","lat":50.04988,"lon":19.99015},{"id":"1605","name":"Krapkowicki","voiv_id":"16","voiv_name":"Opolskie","lat":50.42839,"lon":17.99869},{"id":"0606","name":"Krasnostawski","voiv_id":"06","voiv_name":"Lubelskie","lat":50.95808,"lon":23.10112},{"id":"0607","name":"Kraśnicki","voiv_id":"06","voiv_name":"Lubelskie","lat":50.91418,"lon":22.18349},{"id":"1861","name":"Krosno","voiv_id":"18","voiv_name":"Podkarpackie","lat":49.69489,"lon":21.74572},{"id":"1807","name":"Krośnieński","voiv_id":"18","voiv_name":"Podkarpackie","lat":49.59406,"lon":21.75969},{"id":"0802","name":"Krośnieński","voiv_id":"08","voiv_name":"Lubuskie","lat":52.02282,"lon":14.94071},{"id":"3012","name":"Krotoszyński","voiv_id":"30","voiv_name":"Wielkopolskie","lat":51.73008,"lon":17.42081},{"id":"1002","name":"Kutnowski","voiv_id":"10","voiv_name":"Łódzkie","lat":52.2478,"lon":19.35869},{"id":"2207","name":"Kwidzyński","voiv_id":"22","voiv_name":"Pomorskie","lat":53.75055,"lon":19.04098},{"id":"1408","name":"Legionowski","voiv_id":"14","voiv_name":"Mazowieckie","lat":52.452,"lon":20.98829},{"id":"0262","name":"Legnica","voiv_id":"02","voiv_name":"Dolnośląskie","lat":51.211,"lon":16.17841},{"id":"0209","name":"Legnicki","voiv_id":"02","voiv_name":"Dolnośląskie","lat":51.23817,"lon":16.10947},{"id":"1821","name":"Leski","voiv_id":"18","voiv_name":"Podkarpackie","lat":49.32532,"lon":22.39278},{"id":"3013","name":"Leszczyński","voiv_id":"30","voiv_name":"Wielkopolskie","lat":51.88944,"lon":16.4884},{"id":"3063","name":"Leszno","voiv_id":"30","voiv_name":"Wielkopolskie","lat":51.83983,"lon":16.57339},{"id":"1808","name":"Leżajski","voiv_id":"18","voiv_name":"Podkarpackie","lat":50.27814,"lon":22.4715},{"id":"2208","name":"Lęborski","voiv_id":"22","voiv_name":"Pomorskie","lat":54.57701,"lon":17.65988},{"id":"2809","name":"Lidzbarski","voiv_id":"28","voiv_name":"Warmińsko-mazurskie","lat":54.1132,"lon":20.22812},{"id":"1207","name":"Limanowski","voiv_id":"12","voiv_name":"Małopolskie","lat":49.69383,"lon":20.33047},{"id":"0408","name":"Lipnowski","voiv_id":"04","voiv_name":"Kujawsko-pomorskie","lat":52.81503,"lon":19.24578},{"id":"1409","name":"Lipski","voiv_id":"14","voiv_name":"Mazowieckie","lat":51.1928,"lon":21.63651},{"id":"1809","name":"Lubaczowski","voiv_id":"18","voiv_name":"Podkarpackie","lat":50.22218,"lon":23.17072},{"id":"0210","name":"Lubański","voiv_id":"02","voiv_name":"Dolnośląskie","lat":51.0104,"lon":15.30624},{"id":"0608","name":"Lubartowski","voiv_id":"06","voiv_name":"Lubelskie","lat":51.49978,"lon":22.58445},{"id":"0609","name":"Lubelski","voiv_id":"06","voiv_name":"Lubelskie","lat":51.17139,"lon":22.48925},{"id":"0211","name":"Lubiński","voiv_id":"02","voiv_name":"Dolnośląskie","lat":51.40496,"lon":16.24477},{"id":"0663","name":"Lublin","voiv_id":"06","voiv_name":"Lubelskie","lat":51.23101,"lon":22.56491},{"id":"2407","name":"Lubliniecki","voiv_id":"24","voiv_name":"Śląskie","lat":50.68578,"lon":18.76254},{"id":"0212","name":"Lwówecki","voiv_id":"02","voiv_name":"Dolnośląskie","lat":50.98397,"lon":15.47848},{"id":"1810","name":"Łańcucki","voiv_id":"18","voiv_name":"Podkarpackie","lat":50.09482,"lon":22.25003},{"id":"1003","name":"Łaski","voiv_id":"10","voiv_name":"Łódzkie","lat":51.5405,"lon":19.04379},{"id":"1004","name":"Łęczycki","voiv_id":"10","voiv_name":"Łódzkie","lat":52.07549,"lon":19.14708},{"id":"0610","name":"Łęczyński","voiv_id":"06","voiv_name":"Lubelskie","lat":51.31346,"lon":22.98406},{"id":"3218","name":"Łobeski","voiv_id":"32","voiv_name":"Zachodniopomorskie","lat":53.66218,"lon":15.46796},{"id":"2062","name":"Łomża","voiv_id":"20","voiv_name":"Podlaskie","lat":53.18377,"lon":22.05829},{"id":"2007","name":"Łomżyński","voiv_id":"20","voiv_name":"Podlaskie","lat":53.20647,"lon":22.06029},{"id":"1410","name":"Łosicki","voiv_id":"14","voiv_name":"Mazowieckie","lat":52.23272,"lon":22.82502},{"id":"1005","name":"Łowicki","voiv_id":"10","voiv_name":"Łódzkie","lat":52.12146,"lon":19.8125},{"id":"1006","name":"Łódzki wschodni","voiv_id":"10","voiv_name":"Łódzkie","lat":51.69963,"lon":19.68871},{"id":"1061","name":"Łódź","voiv_id":"10","voiv_name":"Łódzkie","lat":51.76723,"lon":19.44984},{"id":"0611","name":"Łukowski","voiv_id":"06","voiv_name":"Lubelskie","lat":51.87337,"lon":22.25345},{"id":"1411","name":"Makowski","voiv_id":"14","voiv_name":"Mazowieckie","lat":52.94007,"lon":21.18655},{"id":"2209","name":"Malborski","voiv_id":"22","voiv_name":"Pomorskie","lat":54.0656,"lon":19.04776},{"id":"1208","name":"Miechowski","voiv_id":"12","voiv_name":"Małopolskie","lat":50.37496,"lon":20.08203},{"id":"1811","name":"Mielecki","voiv_id":"18","voiv_name":"Podkarpackie","lat":50.27527,"lon":21.41227},{"id":"3014","name":"Międzychodzki","voiv_id":"30","voiv_name":"Wielkopolskie","lat":52.58782,"lon":16.03859},{"id":"0803","name":"Międzyrzecki","voiv_id":"08","voiv_name":"Lubuskie","lat":52.47228,"lon":15.68579},{"id":"2408","name":"Mikołowski","voiv_id":"24","voiv_name":"Śląskie","lat":50.15706,"lon":18.84075},{"id":"0213","name":"Milicki","voiv_id":"02","voiv_name":"Dolnośląskie","lat":51.49938,"lon":17.32344},{"id":"1412","name":"Miński","voiv_id":"14","voiv_name":"Mazowieckie","lat":52.18723,"lon":21.63933},{"id":"1413","name":"Mławski","voiv_id":"14","voiv_name":"Mazowieckie","lat":53.03773,"lon":20.36736},{"id":"0409","name":"Mogileński","voiv_id":"04","voiv_name":"Kujawsko-pomorskie","lat":52.65145,"lon":18.03562},{"id":"2008","name":"Moniecki","voiv_id":"20","voiv_name":"Podlaskie","lat":53.43393,"lon":22.76573},{"id":"2810","name":"Mrągowski","voiv_id":"28","voiv_name":"Warmińsko-mazurskie","lat":53.77234,"lon":21.38182},{"id":"2470","name":"Mysłowice","voiv_id":"24","voiv_name":"Śląskie","lat":50.19313,"lon":19.14035},{"id":"2409","name":"Myszkowski","voiv_id":"24","voiv_name":"Śląskie","lat":50.61252,"lon":19.36467},{"id":"1209","name":"Myślenicki","voiv_id":"12","voiv_name":"Małopolskie","lat":49.81449,"lon":19.97749},{"id":"3210","name":"Myśliborski","voiv_id":"32","voiv_name":"Zachodniopomorskie","lat":52.8955,"lon":14.88424},{"id":"0410","name":"Nakielski","voiv_id":"04","voiv_name":"Kujawsko-pomorskie","lat":53.09555,"lon":17.59126},{"id":"1606","name":"Namysłowski","voiv_id":"16","voiv_name":"Opolskie","lat":51.02962,"lon":17.76447},{"id":"2811","name":"Nidzicki","voiv_id":"28","voiv_name":"Warmińsko-mazurskie","lat":53.36937,"lon":20.43215},{"id":"1812","name":"Niżański","voiv_id":"18","voiv_name":"Podkarpackie","lat":50.48244,"lon":22.30813},{"id":"1414","name":"Nowodworski","voiv_id":"14","voiv_name":"Mazowieckie","lat":52.46327,"lon":20.67297},{"id":"2210","name":"Nowodworski","voiv_id":"22","voiv_name":"Pomorskie","lat":54.19958,"lon":19.14214},{"id":"2812","name":"Nowomiejski","voiv_id":"28","voiv_name":"Warmińsko-mazurskie","lat":53.43856,"lon":19.51188},{"id":"1210","name":"Nowosądecki","voiv_id":"12","voiv_name":"Małopolskie","lat":49.55578,"lon":20.75023},{"id":"0804","name":"Nowosolski","voiv_id":"08","voiv_name":"Lubuskie","lat":51.84372,"lon":15.80439},{"id":"1211","name":"Nowotarski","voiv_id":"12","voiv_name":"Małopolskie","lat":49.46778,"lon":20.02091},{"id":"3015","name":"Nowotomyski","voiv_id":"30","voiv_name":"Wielkopolskie","lat":52.35723,"lon":16.09091},{"id":"1262","name":"Nowy Sącz","voiv_id":"12","voiv_name":"Małopolskie","lat":49.61156,"lon":20.71043},{"id":"1607","name":"Nyski","voiv_id":"16","voiv_name":"Opolskie","lat":50.47025,"lon":17.34672},{"id":"3016","name":"Obornicki","voiv_id":"30","voiv_name":"Wielkopolskie","lat":52.7249,"lon":16.85073},{"id":"2813","name":"Olecki","voiv_id":"28","voiv_name":"Warmińsko-mazurskie","lat":54.04707,"lon":22.40417},{"id":"1608","name":"Oleski","voiv_id":"16","voiv_name":"Opolskie","lat":50.8926,"lon":18.45551},{"id":"0214","name":"Oleśnicki","voiv_id":"02","voiv_name":"Dolnośląskie","lat":51.28292,"lon":17.51734},{"id":"1212","name":"Olkuski","voiv_id":"12","voiv_name":"Małopolskie","lat":50.32441,"lon":19.60844},{"id":"2862","name":"Olsztyn","voiv_id":"28","voiv_name":"Warmińsko-mazurskie","lat":53.79202,"lon":20.47187},{"id":"2814","name":"Olsztyński","voiv_id":"28","voiv_name":"Warmińsko-mazurskie","lat":53.781,"lon":20.48056},{"id":"0215","name":"Oławski","voiv_id":"02","voiv_name":"Dolnośląskie","lat":50.95021,"lon":17.30837},{"id":"2606","name":"Opatowski","voiv_id":"26","voiv_name":"Świętokrzyskie","lat":50.83974,"lon":21.4957},{"id":"1007","name":"Opoczyński","voiv_id":"10","voiv_name":"Łódzkie","lat":51.36648,"lon":20.23283},{"id":"1661","name":"Opole","voiv_id":"16","voiv_name":"Opolskie","lat":50.68568,"lon":17.90626},{"id":"0612","name":"Opolski","voiv_id":"06","voiv_name":"Lubelskie","lat":51.1377,"lon":22.01117},{"id":"1609","name":"Opolski","voiv_id":"16","voiv_name":"Opolskie","lat":50.73813,"lon":17.8796},{"id":"1415","name":"Ostrołęcki","voiv_id":"14","voiv_name":"Mazowieckie","lat":53.18361,"lon":21.50873},{"id":"1461","name":"Ostrołęka","voiv_id":"14","voiv_name":"Mazowieckie","lat":53.08332,"lon":21.58742},{"id":"2607","name":"Ostrowiecki","voiv_id":"26","voiv_name":"Świętokrzyskie","lat":50.92033,"lon":21.38288},{"id":"3017","name":"Ostrowski","voiv_id":"30","voiv_name":"Wielkopolskie","lat":51.57898,"lon":17.85351},{"id":"1416","name":"Ostrowski","voiv_id":"14","voiv_name":"Mazowieckie","lat":52.78236,"lon":22.05141},{"id":"2815","name":"Ostródzki","voiv_id":"28","voiv_name":"Warmińsko-mazurskie","lat":53.77863,"lon":19.98404},{"id":"3018","name":"Ostrzeszowski","voiv_id":"30","voiv_name":"Wielkopolskie","lat":51.44343,"lon":18.01165},{"id":"1213","name":"Oświęcimski","voiv_id":"12","voiv_name":"Małopolskie","lat":49.99022,"lon":19.25712},{"id":"1417","name":"Otwocki","voiv_id":"14","voiv_name":"Mazowieckie","lat":52.06344,"lon":21.39938},{"id":"1008","name":"Pabianicki","voiv_id":"10","voiv_name":"Łódzkie","lat":51.6703,"lon":19.25274},{"id":"1009","name":"Pajęczański","voiv_id":"10","voiv_name":"Łódzkie","lat":51.14116,"lon":19.02041},{"id":"0613","name":"Parczewski","voiv_id":"06","voiv_name":"Lubelskie","lat":51.56273,"lon":22.98901},{"id":"1418","name":"Piaseczyński","voiv_id":"14","voiv_name":"Mazowieckie","lat":52.00058,"lon":20.96242},{"id":"2471","name":"Piekary Śląskie","voiv_id":"24","voiv_name":"Śląskie","lat":50.37987,"lon":18.9666},{"id":"3019","name":"Pilski","voiv_id":"30","voiv_name":"Wielkopolskie","lat":53.1746,"lon":16.91012},{"id":"2608","name":"Pińczowski","voiv_id":"26","voiv_name":"Świętokrzyskie","lat":50.47329,"lon":20.50387},{"id":"1010","name":"Piotrkowski","voiv_id":"10","voiv_name":"Łódzkie","lat":51.38164,"lon":19.71818},{"id":"1062","name":"Piotrków Trybunalski","voiv_id":"10","voiv_name":"Łódzkie","lat":51.41423,"lon":19.7049},{"id":"2816","name":"Piski","voiv_id":"28","voiv_name":"Warmińsko-mazurskie","lat":53.72745,"lon":21.87512},{"id":"3020","name":"Pleszewski","voiv_id":"30","voiv_name":"Wielkopolskie","lat":51.81902,"lon":17.60076},{"id":"1462","name":"Płock","voiv_id":"14","voiv_name":"Mazowieckie","lat":52.53154,"lon":19.70883},{"id":"1419","name":"Płocki","voiv_id":"14","voiv_name":"Mazowieckie","lat":52.55721,"lon":19.79185},{"id":"1420","name":"Płoński","voiv_id":"14","voiv_name":"Mazowieckie","lat":52.68216,"lon":20.31131},{"id":"1011","name":"Poddębicki","voiv_id":"10","voiv_name":"Łódzkie","lat":51.90402,"lon":18.87557},{"id":"3211","name":"Policki","voiv_id":"32","voiv_name":"Zachodniopomorskie","lat":53.49316,"lon":14.48175},{"id":"0216","name":"Polkowicki","voiv_id":"02","voiv_name":"Dolnośląskie","lat":51.52358,"lon":16.01511},{"id":"3064","name":"Poznań","voiv_id":"30","voiv_name":"Wielkopolskie","lat":52.40999,"lon":16.92273},{"id":"3021","name":"Poznański","voiv_id":"30","voiv_name":"Wielkopolskie","lat":52.40659,"lon":16.91937},{"id":"1214","name":"Proszowicki","voiv_id":"12","voiv_name":"Małopolskie","lat":50.20402,"lon":20.36399},{"id":"1610","name":"Prudnicki","voiv_id":"16","voiv_name":"Opolskie","lat":50.36126,"lon":17.71306},{"id":"1421","name":"Pruszkowski","voiv_id":"14","voiv_name":"Mazowieckie","lat":52.11577,"lon":20.78968},{"id":"1422","name":"Przasnyski","voiv_id":"14","voiv_name":"Mazowieckie","lat":53.1679,"lon":20.96118},{"id":"1813","name":"Przemyski","voiv_id":"18","voiv_name":"Podkarpackie","lat":49.77658,"lon":22.55455},{"id":"1862","name":"Przemyśl","voiv_id":"18","voiv_name":"Podkarpackie","lat":49.77913,"lon":22.76682},{"id":"1814","name":"Przeworski","voiv_id":"18","voiv_name":"Podkarpackie","lat":50.08716,"lon":22.50213},{"id":"1423","name":"Przysuski","voiv_id":"14","voiv_name":"Mazowieckie","lat":51.23456,"lon":20.62284},{"id":"2410","name":"Pszczyński","voiv_id":"24","voiv_name":"Śląskie","lat":49.89516,"lon":18.85223},{"id":"2211","name":"Pucki","voiv_id":"22","voiv_name":"Pomorskie","lat":54.68262,"lon":18.25444},{"id":"0614","name":"Puławski","voiv_id":"06","voiv_name":"Lubelskie","lat":51.43321,"lon":22.05068},{"id":"1424","name":"Pułtuski","voiv_id":"14","voiv_name":"Mazowieckie","lat":52.67205,"lon":20.99749},{"id":"3212","name":"Pyrzycki","voiv_id":"32","voiv_name":"Zachodniopomorskie","lat":53.08997,"lon":14.90497},{"id":"2411","name":"Raciborski","voiv_id":"24","voiv_name":"Śląskie","lat":50.09706,"lon":18.25996},{"id":"1463","name":"Radom","voiv_id":"14","voiv_name":"Mazowieckie","lat":51.41954,"lon":21.16991},{"id":"1425","name":"Radomski","voiv_id":"14","voiv_name":"Mazowieckie","lat":51.39583,"lon":21.15535},{"id":"1012","name":"Radomszczański","voiv_id":"10","voiv_name":"Łódzkie","lat":51.04425,"lon":19.66565},{"id":"0411","name":"Radziejowski","voiv_id":"04","voiv_name":"Kujawsko-pomorskie","lat":52.548,"lon":18.58438},{"id":"0615","name":"Radzyński","voiv_id":"06","voiv_name":"Lubelskie","lat":51.81847,"lon":22.66505},{"id":"3022","name":"Rawicki","voiv_id":"30","voiv_name":"Wielkopolskie","lat":51.65266,"lon":16.94197},{"id":"1013","name":"Rawski","voiv_id":"10","voiv_name":"Łódzkie","lat":51.76233,"lon":20.37305},{"id":"1815","name":"Ropczycko-sędziszowski","voiv_id":"18","voiv_name":"Podkarpackie","lat":50.05186,"lon":21.62655},{"id":"2472","name":"Ruda Śląska","voiv_id":"24","voiv_name":"Śląskie","lat":50.26278,"lon":18.87073},{"id":"2412","name":"Rybnicki","voiv_id":"24","voiv_name":"Śląskie","lat":50.03505,"lon":18.57633},{"id":"2473","name":"Rybnik","voiv_id":"24","voiv_name":"Śląskie","lat":50.09717,"lon":18.54915},{"id":"0616","name":"Rycki","voiv_id":"06","voiv_name":"Lubelskie","lat":51.62885,"lon":21.97292},{"id":"0412","name":"Rypiński","voiv_id":"04","voiv_name":"Kujawsko-pomorskie","lat":53.0808,"lon":19.39825},{"id":"1816","name":"Rzeszowski","voiv_id":"18","voiv_name":"Podkarpackie","lat":50.04969,"lon":22.09195},{"id":"1863","name":"Rzeszów","voiv_id":"18","voiv_name":"Podkarpackie","lat":50.0245,"lon":21.99962},{"id":"2609","name":"Sandomierski","voiv_id":"26","voiv_name":"Świętokrzyskie","lat":50.70404,"lon":21.57994},{"id":"1817","name":"Sanocki","voiv_id":"18","voiv_name":"Podkarpackie","lat":49.47722,"lon":22.14671},{"id":"2009","name":"Sejneński","voiv_id":"20","voiv_name":"Podlaskie","lat":54.02459,"lon":23.31907},{"id":"0413","name":"Sępoleński","voiv_id":"04","voiv_name":"Kujawsko-pomorskie","lat":53.42531,"lon":17.50032},{"id":"1464","name":"Siedlce","voiv_id":"14","voiv_name":"Mazowieckie","lat":52.16209,"lon":22.25097},{"id":"1426","name":"Siedlecki","voiv_id":"14","voiv_name":"Mazowieckie","lat":52.19582,"lon":22.34169},{"id":"2474","name":"Siemianowice Śląskie","voiv_id":"24","voiv_name":"Śląskie","lat":50.31172,"lon":19.0345},{"id":"2010","name":"Siemiatycki","voiv_id":"20","voiv_name":"Podlaskie","lat":52.50695,"lon":22.84739},{"id":"1014","name":"Sieradzki","voiv_id":"10","voiv_name":"Łódzkie","lat":51.59325,"lon":18.60742},{"id":"1427","name":"Sierpecki","voiv_id":"14","voiv_name":"Mazowieckie","lat":52.80852,"lon":19.68353},{"id":"2610","name":"Skarżyski","voiv_id":"26","voiv_name":"Świętokrzyskie","lat":51.07575,"lon":20.79425},{"id":"1063","name":"Skierniewice","voiv_id":"10","voiv_name":"Łódzkie","lat":51.95997,"lon":20.1774},{"id":"1015","name":"Skierniewicki","voiv_id":"10","voiv_name":"Łódzkie","lat":51.90141,"lon":20.19912},{"id":"3213","name":"Sławieński","voiv_id":"32","voiv_name":"Zachodniopomorskie","lat":54.30724,"lon":16.59589},{"id":"0805","name":"Słubicki","voiv_id":"08","voiv_name":"Lubuskie","lat":52.3206,"lon":14.82761},{"id":"3023","name":"Słupecki","voiv_id":"30","voiv_name":"Wielkopolskie","lat":52.33542,"lon":17.92982},{"id":"2263","name":"Słupsk","voiv_id":"22","voiv_name":"Pomorskie","lat":54.46694,"lon":17.00442},{"id":"2212","name":"Słupski","voiv_id":"22","voiv_name":"Pomorskie","lat":54.37481,"lon":17.19555},{"id":"1428","name":"Sochaczewski","voiv_id":"14","voiv_name":"Mazowieckie","lat":52.26666,"lon":20.26867},{"id":"1429","name":"Sokołowski","voiv_id":"14","voiv_name":"Mazowieckie","lat":52.46591,"lon":22.25867},{"id":"2011","name":"Sokólski","voiv_id":"20","voiv_name":"Podlaskie","lat":53.49548,"lon":23.2841},{"id":"2264","name":"Sopot","voiv_id":"22","voiv_name":"Pomorskie","lat":54.43777,"lon":18.54484},{"id":"2475","name":"Sosnowiec","voiv_id":"24","voiv_name":"Śląskie","lat":50.27568,"lon":19.20978},{"id":"1818","name":"Stalowowolski","voiv_id":"18","voiv_name":"Podkarpackie","lat":50.62046,"lon":22.06548},{"id":"2611","name":"Starachowicki","voiv_id":"26","voiv_name":"Świętokrzyskie","lat":51.00338,"lon":21.09708},{"id":"3214","name":"Stargardzki","voiv_id":"32","voiv_name":"Zachodniopomorskie","lat":53.35413,"lon":15.26929},{"id":"2213","name":"Starogardzki","voiv_id":"22","voiv_name":"Pomorskie","lat":53.90181,"lon":18.43552},{"id":"2612","name":"Staszowski","voiv_id":"26","voiv_name":"Świętokrzyskie","lat":50.4971,"lon":21.0823},{"id":"1611","name":"Strzelecki","voiv_id":"16","voiv_name":"Opolskie","lat":50.52454,"lon":18.33009},{"id":"0806","name":"Strzelecko-drezdenecki","voiv_id":"08","voiv_name":"Lubuskie","lat":52.92727,"lon":15.76591},{"id":"0217","name":"Strzeliński","voiv_id":"02","voiv_name":"Dolnośląskie","lat":50.77558,"lon":17.08302},{"id":"1819","name":"Strzyżowski","voiv_id":"18","voiv_name":"Podkarpackie","lat":49.86175,"lon":21.74815},{"id":"0807","name":"Sulęciński","voiv_id":"08","voiv_name":"Lubuskie","lat":52.38878,"lon":15.07973},{"id":"1215","name":"Suski","voiv_id":"12","voiv_name":"Małopolskie","lat":49.69975,"lon":19.66256},{"id":"2012","name":"Suwalski","voiv_id":"20","voiv_name":"Podlaskie","lat":54.12579,"lon":22.83248},{"id":"2063","name":"Suwałki","voiv_id":"20","voiv_name":"Podlaskie","lat":54.09037,"lon":22.95466},{"id":"3024","name":"Szamotulski","voiv_id":"30","voiv_name":"Wielkopolskie","lat":52.57546,"lon":16.41608},{"id":"3262","name":"Szczecin","voiv_id":"32","voiv_name":"Zachodniopomorskie","lat":53.42413,"lon":14.64768},{"id":"3215","name":"Szczecinecki","voiv_id":"32","voiv_name":"Zachodniopomorskie","lat":53.78117,"lon":16.56649},{"id":"2817","name":"Szczycieński","voiv_id":"28","voiv_name":"Warmińsko-mazurskie","lat":53.53862,"lon":21.07704},{"id":"2216","name":"Sztumski","voiv_id":"22","voiv_name":"Pomorskie","lat":53.91294,"lon":19.24219},{"id":"1430","name":"Szydłowiecki","voiv_id":"14","voiv_name":"Mazowieckie","lat":51.2604,"lon":20.8194},{"id":"3025","name":"Średzki","voiv_id":"30","voiv_name":"Wielkopolskie","lat":52.16678,"lon":17.34407},{"id":"0218","name":"Średzki","voiv_id":"02","voiv_name":"Dolnośląskie","lat":51.11884,"lon":16.63795},{"id":"3026","name":"Śremski","voiv_id":"30","voiv_name":"Wielkopolskie","lat":52.07532,"lon":17.05005},{"id":"0617","name":"Świdnicki","voiv_id":"06","voiv_name":"Lubelskie","lat":51.12345,"lon":22.89366},{"id":"0219","name":"Świdnicki","voiv_id":"02","voiv_name":"Dolnośląskie","lat":50.88533,"lon":16.44839},{"id":"3216","name":"Świdwiński","voiv_id":"32","voiv_name":"Zachodniopomorskie","lat":53.79089,"lon":15.90945},{"id":"0808","name":"Świebodziński","voiv_id":"08","voiv_name":"Lubuskie","lat":52.25161,"lon":15.44583},{"id":"0414","name":"Świecki","voiv_id":"04","voiv_name":"Kujawsko-pomorskie","lat":53.52998,"lon":18.32471},{"id":"2476","name":"Świętochłowice","voiv_id":"24","voiv_name":"Śląskie","lat":50.29557,"lon":18.9116},{"id":"3263","name":"Świnoujście","voiv_id":"32","voiv_name":"Zachodniopomorskie","lat":53.8962,"lon":14.28595},{"id":"1864","name":"Tarnobrzeg","voiv_id":"18","voiv_name":"Podkarpackie","lat":50.58161,"lon":21.70929},{"id":"1820","name":"Tarnobrzeski","voiv_id":"18","voiv_name":"Podkarpackie","lat":50.53792,"lon":21.76217},{"id":"2413","name":"Tarnogórski","voiv_id":"24","voiv_name":"Śląskie","lat":50.48003,"lon":18.80509},{"id":"1216","name":"Tarnowski","voiv_id":"12","voiv_name":"Małopolskie","lat":49.96792,"lon":20.94518},{"id":"1263","name":"Tarnów","voiv_id":"12","voiv_name":"Małopolskie","lat":50.01815,"lon":20.96847},{"id":"1217","name":"Tatrzański","voiv_id":"12","voiv_name":"Małopolskie","lat":49.30045,"lon":20.00706},{"id":"2214","name":"Tczewski","voiv_id":"22","voiv_name":"Pomorskie","lat":53.91797,"lon":18.68533},{"id":"0618","name":"Tomaszowski","voiv_id":"06","voiv_name":"Lubelskie","lat":50.49306,"lon":23.48851},{"id":"1016","name":"Tomaszowski","voiv_id":"10","voiv_name":"Łódzkie","lat":51.61721,"lon":20.05978},{"id":"0463","name":"Toruń","voiv_id":"04","voiv_name":"Kujawsko-pomorskie","lat":53.0156,"lon":18.6391},{"id":"0415","name":"Toruński","voiv_id":"04","voiv_name":"Kujawsko-pomorskie","lat":53.0053,"lon":18.72251},{"id":"0220","name":"Trzebnicki","voiv_id":"02","voiv_name":"Dolnośląskie","lat":51.37012,"lon":17.01104},{"id":"0416","name":"Tucholski","voiv_id":"04","voiv_name":"Kujawsko-pomorskie","lat":53.56488,"lon":17.977},{"id":"3027","name":"Turecki","voiv_id":"30","voiv_name":"Wielkopolskie","lat":51.99047,"lon":18.53592},{"id":"2477","name":"Tychy","voiv_id":"24","voiv_name":"Śląskie","lat":50.12464,"lon":19.00509},{"id":"1218","name":"Wadowicki","voiv_id":"12","voiv_name":"Małopolskie","lat":49.89561,"lon":19.56062},{"id":"0265","name":"Wałbrzych","voiv_id":"02","voiv_name":"Dolnośląskie","lat":50.7865,"lon":16.28422},{"id":"0221","name":"Wałbrzyski","voiv_id":"02","voiv_name":"Dolnośląskie","lat":50.75464,"lon":16.26568},{"id":"3217","name":"Wałecki","voiv_id":"32","voiv_name":"Zachodniopomorskie","lat":53.24634,"lon":16.27129},{"id":"1465","name":"Warszawa","voiv_id":"14","voiv_name":"Mazowieckie","lat":52.23019,"lon":21.04398},{"id":"1432","name":"Warszawski zachodni","voiv_id":"14","voiv_name":"Mazowieckie","lat":52.2639,"lon":20.60245},{"id":"0417","name":"Wąbrzeski","voiv_id":"04","voiv_name":"Kujawsko-pomorskie","lat":53.28599,"lon":18.95731},{"id":"3028","name":"Wągrowiecki","voiv_id":"30","voiv_name":"Wielkopolskie","lat":52.78777,"lon":17.22788},{"id":"2215","name":"Wejherowski","voiv_id":"22","voiv_name":"Pomorskie","lat":54.58262,"lon":18.08257},{"id":"2819","name":"Węgorzewski","voiv_id":"28","voiv_name":"Warmińsko-mazurskie","lat":54.18425,"lon":21.74478},{"id":"1433","name":"Węgrowski","voiv_id":"14","voiv_name":"Mazowieckie","lat":52.47022,"lon":21.85501},{"id":"1219","name":"Wielicki","voiv_id":"12","voiv_name":"Małopolskie","lat":49.95695,"lon":20.16484},{"id":"1017","name":"Wieluński","voiv_id":"10","voiv_name":"Łódzkie","lat":51.21868,"lon":18.64685},{"id":"1018","name":"Wieruszowski","voiv_id":"10","voiv_name":"Łódzkie","lat":51.27936,"lon":18.25889},{"id":"0464","name":"Włocławek","voiv_id":"04","voiv_name":"Kujawsko-pomorskie","lat":52.65406,"lon":19.06348},{"id":"0418","name":"Włocławski","voiv_id":"04","voiv_name":"Kujawsko-pomorskie","lat":52.76663,"lon":19.05856},{"id":"0619","name":"Włodawski","voiv_id":"06","voiv_name":"Lubelskie","lat":51.46835,"lon":23.49393},{"id":"2613","name":"Włoszczowski","voiv_id":"26","voiv_name":"Świętokrzyskie","lat":50.84085,"lon":19.90365},{"id":"2415","name":"Wodzisławski","voiv_id":"24","voiv_name":"Śląskie","lat":49.98227,"lon":18.462},{"id":"3029","name":"Wolsztyński","voiv_id":"30","voiv_name":"Wielkopolskie","lat":52.07648,"lon":16.13376},{"id":"1434","name":"Wołomiński","voiv_id":"14","voiv_name":"Mazowieckie","lat":52.41395,"lon":21.46296},{"id":"0222","name":"Wołowski","voiv_id":"02","voiv_name":"Dolnośląskie","lat":51.38711,"lon":16.6416},{"id":"0264","name":"Wrocław","voiv_id":"02","voiv_name":"Dolnośląskie","lat":51.13278,"lon":16.98396},{"id":"0223","name":"Wrocławski","voiv_id":"02","voiv_name":"Dolnośląskie","lat":51.02883,"lon":16.968},{"id":"3030","name":"Wrzesiński","voiv_id":"30","voiv_name":"Wielkopolskie","lat":52.22528,"lon":17.5917},{"id":"0812","name":"Wschowski","voiv_id":"08","voiv_name":"Lubuskie","lat":51.84016,"lon":16.13354},{"id":"2013","name":"Wysokomazowiecki","voiv_id":"20","voiv_name":"Podlaskie","lat":52.85123,"lon":22.57634},{"id":"1435","name":"Wyszkowski","voiv_id":"14","voiv_name":"Mazowieckie","lat":52.64554,"lon":21.49589},{"id":"2478","name":"Zabrze","voiv_id":"24","voiv_name":"Śląskie","lat":50.31233,"lon":18.78462},{"id":"2014","name":"Zambrowski","voiv_id":"20","voiv_name":"Podlaskie","lat":53.02435,"lon":22.25321},{"id":"0620","name":"Zamojski","voiv_id":"06","voiv_name":"Lubelskie","lat":50.7265,"lon":23.20863},{"id":"0664","name":"Zamość","voiv_id":"06","voiv_name":"Lubelskie","lat":50.72274,"lon":23.25037},{"id":"2416","name":"Zawierciański","voiv_id":"24","voiv_name":"Śląskie","lat":50.54211,"lon":19.6236},{"id":"0224","name":"Ząbkowicki","voiv_id":"02","voiv_name":"Dolnośląskie","lat":50.56595,"lon":16.87183},{"id":"1019","name":"Zduńskowolski","voiv_id":"10","voiv_name":"Łódzkie","lat":51.6509,"lon":18.80496},{"id":"1020","name":"Zgierski","voiv_id":"10","voiv_name":"Łódzkie","lat":51.92473,"lon":19.46384},{"id":"0225","name":"Zgorzelecki","voiv_id":"02","voiv_name":"Dolnośląskie","lat":51.13772,"lon":15.06276},{"id":"0862","name":"Zielona Góra","voiv_id":"08","voiv_name":"Lubuskie","lat":51.93041,"lon":15.53713},{"id":"0809","name":"Zielonogórski","voiv_id":"08","voiv_name":"Lubuskie","lat":51.97593,"lon":15.56069},{"id":"0226","name":"Złotoryjski","voiv_id":"02","voiv_name":"Dolnośląskie","lat":51.07764,"lon":15.87567},{"id":"3031","name":"Złotowski","voiv_id":"30","voiv_name":"Wielkopolskie","lat":53.42315,"lon":16.9696},{"id":"1436","name":"Zwoleński","voiv_id":"14","voiv_name":"Mazowieckie","lat":51.32567,"lon":21.63491},{"id":"0810","name":"Żagański","voiv_id":"08","voiv_name":"Lubuskie","lat":51.58427,"lon":15.39578},{"id":"0811","name":"Żarski","voiv_id":"08","voiv_name":"Lubuskie","lat":51.64206,"lon":14.96069},{"id":"0419","name":"Żniński","voiv_id":"04","voiv_name":"Kujawsko-pomorskie","lat":52.80623,"lon":17.75327},{"id":"2479","name":"Żory","voiv_id":"24","voiv_name":"Śląskie","lat":50.03789,"lon":18.67503},{"id":"1437","name":"Żuromiński","voiv_id":"14","voiv_name":"Mazowieckie","lat":52.98486,"lon":19.94439},{"id":"1438","name":"Żyrardowski","voiv_id":"14","voiv_name":"Mazowieckie","lat":51.99976,"lon":20.44452},{"id":"2417","name":"Żywiecki","voiv_id":"24","voiv_name":"Śląskie","lat":49.61867,"lon":19.1965}]